{
"version": 3,
"status": "ok",
"response": {
"data": [
{
"address": "3020 Quigley Rd",
"category_ids": [
12
],
"category_labels": [
[
"Automotive",
"Maintenance and Repair",
"Tires"
]
],
"country": "us",
"email": "sales@advancedtirecleveland.com",
"factual_id": "2ea91280-cdf9-4f60-a016-04aeacac4886",
"fax": "(216) 241-1640",
"hours": {
"monday": [
[
"8:00",
"23:59"
]
],
"tuesday": [
[
"00:00",
"4:30"
],
[
"8:00",
"23:59"
]
],
"wednesday": [
[
"00:00",
"4:30"
],
[
"8:00",
"23:59"
]
],
"thursday": [
[
"00:00",
"4:30"
],
[
"8:00",
"23:59"
]
],
"friday": [
[
"00:00",
"4:30"
],
[
"8:00",
"23:59"
]
],
"saturday": [
[
"00:00",
"4:30"
]
]
},
"hours_display": "Mon 8:00 AM-11:59 PM; Tue-Fri 12:00 AM-4:30 AM, 8:00 AM-11:59 PM; Sat 12:00 AM-4:30 AM",
"latitude": 41.471365,
"locality": "Cleveland",
"longitude": -81.681415,
"name": "Advanced Tire",
"neighborhood": [
"Tremont"
],
"postcode": "44113",
"region": "OH",
"tel": "(216) 241-1295",
"website": "http://www.advancedtirecleveland.com/",
"$distance": 4669.0356
},
{
"address": "6818 Carnegie Ave",
"category_ids": [
9
],
"category_labels": [
[
"Automotive",
"Maintenance and Repair"
]
],
"country": "us",
"email": "ajautomotivegroup@yahoo.com",
"factual_id": "445faf15-bd9b-48cf-b3c6-6f2dbbacead9",
"hours": {
"monday": [
[
"8:00",
"17:00"
]
],
"tuesday": [
[
"8:00",
"17:00"
]
],
"wednesday": [
[
"8:00",
"17:00"
]
],
"thursday": [
[
"8:00",
"17:00"
]
],
"friday": [
[
"8:00",
"17:00"
]
],
"saturday": [
[
"8:00",
"12:00"
]
]
},
"hours_display": "Mon-Fri 8:00 AM-5:00 PM; Sat 8:00 AM-12:00 PM",
"latitude": 41.501566,
"locality": "Cleveland",
"longitude": -81.642589,
"name": "Aj Automotive",
"postcode": "44103",
"region": "OH",
"tel": "(216) 432-0660",
"website": "http://www.clevelandautomotiverepair.com/",
"$distance": 4744.8506
},
{
"address": "7714 Commerce Park Oval",
"category_ids": [
9
],
"category_labels": [
[
"Automotive",
"Maintenance and Repair"
]
],
"country": "us",
"email": "jdoyle@fleetme.com",
"factual_id": "80e13c12-e72a-4cab-bc93-b20feb8c3794",
"hours": {
"monday": [
[
"00:00",
"23:30"
]
],
"tuesday": [
[
"00:00",
"23:30"
]
],
"wednesday": [
[
"00:00",
"23:30"
]
],
"thursday": [
[
"00:00",
"23:30"
]
],
"friday": [
[
"00:00",
"23:30"
]
],
"saturday": [
[
"00:00",
"23:30"
]
]
},
"hours_display": "Mon-Sat 12:00 AM-11:30 PM",
"latitude": 41.396067,
"locality": "Independence",
"longitude": -81.633963,
"name": "American Fleet Services",
"postcode": "44131",
"region": "OH",
"tel": "(216) 447-6060",
"website": "http://www.fleetme.com",
"$distance": 7181.682
},
{
"address": "12420 Cedar Rd",
"category_ids": [
9
],
"category_labels": [
[
"Automotive",
"Maintenance and Repair"
]
],
"country": "us",
"factual_id": "6346eb1f-b23d-4206-a492-5eeba58de98a",
"fax": "(216) 229-2576",
"hours": {
"monday": [
[
"7:00",
"19:00"
]
],
"tuesday": [
[
"7:00",
"19:00"
]
],
"wednesday": [
[
"7:00",
"19:00"
]
],
"thursday": [
[
"7:00",
"19:00"
]
],
"friday": [
[
"7:00",
"19:00"
]
],
"saturday": [
[
"7:00",
"18:00"
]
],
"sunday": [
[
"9:00",
"17:00"
]
]
},
"hours_display": "Mon-Fri 7:00 AM-7:00 PM; Sat 7:00 AM-6:00 PM; Sun 9:00 AM-5:00 PM",
"latitude": 41.500788,
"locality": "Cleveland",
"longitude": -81.593669,
"name": "Firestone Complete Auto Care",
"neighborhood": [
"Cedar Fairmount"
],
"postcode": "44106",
"region": "OH",
"tel": "(216) 229-2550",
"website": "http://www.firestonecompleteautocare.com/",
"$distance": 5287.653
},
{
"address": "3917 Prospect Ave E",
"category_ids": [
9
],
"category_labels": [
[
"Automotive",
"Maintenance and Repair"
]
],
"country": "us",
"factual_id": "0b1c24c0-e4b0-012e-6195-003048c87378",
"fax": "(216) 432-5161",
"hours": {
"monday": [
[
"7:00",
"19:00"
]
],
"tuesday": [
[
"7:00",
"19:00"
]
],
"wednesday": [
[
"7:00",
"19:00"
]
],
"thursday": [
[
"7:00",
"19:00"
]
],
"friday": [
[
"7:00",
"19:00"
]
],
"saturday": [
[
"7:00",
"18:00"
]
],
"sunday": [
[
"9:00",
"17:00"
]
]
},
"hours_display": "Mon-Fri 7:00 AM-7:00 PM; Sat 7:00 AM-6:00 PM; Sun 9:00 AM-5:00 PM",
"latitude": 41.502434,
"locality": "Cleveland",
"longitude": -81.658501,
"name": "Firestone Complete Auto Care",
"neighborhood": [
"Central"
],
"postcode": "44115",
"region": "OH",
"tel": "(216) 432-0880",
"website": "http://www.firestonecompleteautocare.com/",
"$distance": 5342.106
},
{
"address": "3582 Lee Rd",
"category_ids": [
9
],
"category_labels": [
[
"Automotive",
"Maintenance and Repair"
]
],
"country": "us",
"email": "info@mastercare.com",
"factual_id": "097c5d8b-fb99-4927-ba2f-2dda6ccc3ef0",
"fax": "(216) 921-1405",
"hours": {
"monday": [
[
"7:00",
"19:00"
]
],
"tuesday": [
[
"7:00",
"19:00"
]
],
"wednesday": [
[
"7:00",
"19:00"
]
],
"thursday": [
[
"7:00",
"19:00"
]
],
"friday": [
[
"7:00",
"19:00"
]
],
"saturday": [
[
"7:00",
"18:00"
]
],
"sunday": [
[
"9:00",
"17:00"
]
]
},
"hours_display": "Mon-Fri 7:00 AM-7:00 PM; Sat 7:00 AM-6:00 PM; Sun 9:00 AM-5:00 PM",
"latitude": 41.462261,
"locality": "Shaker Heights",
"longitude": -81.565073,
"name": "Firestone Complete Auto Care",
"postcode": "44120",
"region": "OH",
"tel": "(216) 921-2509",
"website": "http://www.firestonecompleteautocare.com/",
"$distance": 5189.483
},
{
"address": "1659 Fall St",
"category_ids": [
9
],
"category_labels": [
[
"Automotive",
"Maintenance and Repair"
]
],
"country": "us",
"factual_id": "9db06cb7-ee20-45a0-b9c5-c735f0f1fa8c",
"hours": {
"monday": [
[
"8:00",
"17:30"
]
],
"tuesday": [
[
"8:00",
"17:30"
]
],
"wednesday": [
[
"8:00",
"17:30"
]
],
"thursday": [
[
"8:00",
"17:30"
]
],
"friday": [
[
"8:00",
"17:30"
]
]
},
"hours_display": "Mon-Fri 8:00 AM-5:30 PM",
"latitude": 41.492589,
"locality": "Cleveland",
"longitude": -81.702044,
"name": "Gerber's European Auto Repair",
"neighborhood": [
"Downtown",
"The Flats",
"Warehouse District"
],
"postcode": "44113",
"region": "OH",
"tel": "(216) 298-4101",
"website": "http://www.GEAR-oh.com",
"$distance": 7178.8003
},
{
"address": "2120 Lee Rd",
"category_ids": [
9
],
"category_labels": [
[
"Automotive",
"Maintenance and Repair"
]
],
"country": "us",
"email": "sam@lustywrench.com",
"factual_id": "b0a2f00f-8021-48c2-a713-76f7f5892f42",
"hours": {
"monday": [
[
"8:00",
"18:00"
]
],
"tuesday": [
[
"8:00",
"18:00"
]
],
"wednesday": [
[
"8:00",
"18:00"
]
],
"thursday": [
[
"8:00",
"18:00"
]
],
"friday": [
[
"8:00",
"18:00"
]
]
},
"hours_display": "Mon-Fri 8:00 AM-6:00 PM",
"latitude": 41.501705,
"locality": "Cleveland",
"longitude": -81.565601,
"name": "Lusty Wrench",
"neighborhood": [
"Cedar Lee"
],
"postcode": "44118",
"region": "OH",
"tel": "(216) 371-8150",
"website": "http://www.lustywrench.com",
"$distance": 6888.6694
},
{
"address": "1815 Lee Rd",
"category_ids": [
12,
10,
13
],
"category_labels": [
[
"Automotive",
"Maintenance and Repair",
"Tires"
],
[
"Automotive",
"Maintenance and Repair",
"Oil and Lube"
],
[
"Automotive",
"Maintenance and Repair",
"Transmissions"
]
],
"country": "us",
"factual_id": "169e8035-a8b3-47d9-a0b7-64c6f4319e59",
"hours": {
"monday": [
[
"8:00",
"17:30"
]
],
"tuesday": [
[
"8:00",
"17:30"
]
],
"wednesday": [
[
"8:00",
"17:30"
]
],
"thursday": [
[
"8:00",
"17:30"
]
],
"friday": [
[
"8:00",
"17:30"
]
]
},
"hours_display": "Mon-Fri 8:00 AM-5:30 PM",
"latitude": 41.510145,
"locality": "Cleveland",
"longitude": -81.56595,
"name": "C & T Auto Repair",
"neighborhood": [
"Minor Heights"
],
"postcode": "44118",
"region": "OH",
"tel": "(216) 321-4838",
"website": "http://www.candtautoinc.com/",
"$distance": 7526.0444
},
{
"address": "4580 Warrensville Center Rd",
"category_ids": [
10
],
"category_labels": [
[
"Automotive",
"Maintenance and Repair",
"Oil and Lube"
]
],
"country": "us",
"email": "vioc_customer_care@ashland.com",
"factual_id": "093548d1-3f99-4bfd-ae23-884e66349ab6",
"hours": {
"monday": [
[
"8:00",
"19:00"
]
],
"tuesday": [
[
"8:00",
"19:00"
]
],
"wednesday": [
[
"8:00",
"19:00"
]
],
"thursday": [
[
"8:00",
"19:00"
]
],
"friday": [
[
"8:00",
"19:00"
]
],
"saturday": [
[
"8:00",
"18:00"
]
],
"sunday": [
[
"10:00",
"16:00"
]
]
},
"hours_display": "Mon-Fri 8:00 AM-7:00 PM; Sat 8:00 AM-6:00 PM; Sun 10:00 AM-4:00 PM",
"latitude": 41.435416,
"locality": "North Randall",
"longitude": -81.536505,
"name": "Valvoline Instant Oil Change",
"postcode": "44128",
"region": "OH",
"tel": "(216) 663-8258",
"website": "http://www.vioc.com/",
"$distance": 8063.856
},
{
"address": "3203 Mayfield Rd",
"category_ids": [
10
],
"category_labels": [
[
"Automotive",
"Maintenance and Repair",
"Oil and Lube"
]
],
"country": "us",
"factual_id": "a6852460-ae17-4c43-930a-8c9c441b3d40",
"hours": {
"monday": [
[
"8:00",
"17:00"
]
],
"tuesday": [
[
"8:00",
"17:00"
]
],
"wednesday": [
[
"8:00",
"17:00"
]
],
"thursday": [
[
"8:00",
"17:00"
]
],
"friday": [
[
"8:00",
"17:00"
]
]
},
"hours_display": "Mon-Fri 8:00 AM-5:00 PM",
"latitude": 41.517549,
"locality": "Cleveland",
"longitude": -81.56514,
"name": "Alternative Solution Car Care",
"postcode": "44118",
"region": "OH",
"tel": "(216) 371-0801",
"$distance": 8191.8965
},
{
"address": "2703 Scranton Rd",
"category_ids": [
12,
10
],
"category_labels": [
[
"Automotive",
"Maintenance and Repair",
"Tires"
],
[
"Automotive",
"Maintenance and Repair",
"Oil and Lube"
]
],
"country": "us",
"email": "westownruben@gmail.com",
"factual_id": "39151a4a-2845-4d7c-a22b-da29ee404f8c",
"fax": "(406) 798-7736",
"hours": {
"monday": [
[
"9:00",
"17:00"
]
],
"tuesday": [
[
"9:00",
"17:00"
]
],
"wednesday": [
[
"9:00",
"17:00"
]
],
"thursday": [
[
"9:00",
"17:00"
]
],
"friday": [
[
"9:00",
"17:00"
]
],
"saturday": [
[
"9:00",
"15:00"
]
]
},
"hours_display": "Mon-Fri 9:00 AM-5:00 PM; Sat 9:00 AM-3:00 PM",
"latitude": 41.475294,
"locality": "Cleveland",
"longitude": -81.695302,
"name": "Westown Tire & Auto Repair",
"neighborhood": [
"Lakeview Terrace",
"Tremont"
],
"postcode": "44113",
"region": "OH",
"tel": "(216) 241-6806",
"website": "http://www.westowntireandauto.com",
"$distance": 5900.998
},
{
"address": "3328 Saint Clair Ave NE",
"category_ids": [
12,
10
],
"category_labels": [
[
"Automotive",
"Maintenance and Repair",
"Tires"
],
[
"Automotive",
"Maintenance and Repair",
"Oil and Lube"
]
],
"country": "us",
"email": "terrysnorthcoast@gmail.com",
"factual_id": "0234ddf9-b2c1-4e86-831e-5446083bb1c8",
"fax": "(216) 391-3229",
"hours": {
"monday": [
[
"8:00",
"17:00"
]
],
"tuesday": [
[
"8:00",
"17:00"
]
],
"wednesday": [
[
"8:00",
"17:00"
]
],
"thursday": [
[
"8:00",
"17:00"
]
],
"friday": [
[
"8:00",
"17:00"
]
]
},
"hours_display": "Mon-Fri 8:00 AM-5:00 PM",
"latitude": 41.513938,
"locality": "Cleveland",
"longitude": -81.669265,
"name": "Terry's North Coast Auto Body",
"neighborhood": [
"Downtown"
],
"postcode": "44114",
"region": "OH",
"tel": "(216) 391-7446",
"website": "http://www.terrysnorthcoastauto.net",
"$distance": 6897.6685
},
{
"address": "2100 Lee Rd",
"category_ids": [
10,
12
],
"category_labels": [
[
"Automotive",
"Maintenance and Repair",
"Oil and Lube"
],
[
"Automotive",
"Maintenance and Repair",
"Tires"
]
],
"country": "us",
"factual_id": "5cd4795b-0a0e-4136-8a20-6d481277c15c",
"fax": "(973) 764-2642",
"hours": {
"monday": [
[
"8:30",
"18:30"
]
],
"tuesday": [
[
"8:30",
"18:30"
]
],
"wednesday": [
[
"8:30",
"18:30"
]
],
"thursday": [
[
"8:30",
"18:30"
]
],
"friday": [
[
"8:30",
"18:30"
]
],
"saturday": [
[
"8:00",
"17:30"
]
]
},
"hours_display": "Mon-Fri 8:30 AM-6:30 PM; Sat 8:00 AM-5:30 PM",
"latitude": 41.502439,
"locality": "Cleveland",
"longitude": -81.565678,
"name": "Lube Stop",
"neighborhood": [
"Cedar Lee"
],
"postcode": "44118",
"region": "OH",
"tel": "(216) 321-9990",
"website": "http://www.lubestop.com/",
"$distance": 6938.506
},
{
"address": "6535 Broadway Ave",
"category_ids": [
10,
12
],
"category_labels": [
[
"Automotive",
"Maintenance and Repair",
"Oil and Lube"
],
[
"Automotive",
"Maintenance and Repair",
"Tires"
]
],
"country": "us",
"email": "fleetservices@monro.com",
"factual_id": "3285ff65-8478-4ea7-b560-b6836b9b174a",
"fax": "(312) 630-4401",
"hours": {
"monday": [
[
"7:30",
"18:00"
]
],
"tuesday": [
[
"7:30",
"18:00"
]
],
"wednesday": [
[
"7:30",
"18:00"
]
],
"thursday": [
[
"7:30",
"18:00"
]
],
"friday": [
[
"7:30",
"18:00"
]
],
"saturday": [
[
"7:30",
"18:00"
]
]
},
"hours_display": "Mon-Sat 7:30 AM-6:00 PM",
"latitude": 41.46246,
"locality": "Cleveland",
"longitude": -81.644381,
"name": "Monro Muffler Brake & Service",
"postcode": "44105",
"region": "OH",
"tel": "(216) 429-0300",
"website": "http://www.monro.com/local/home/OH/Cleveland/472",
"$distance": 1440.377
},
{
"address": "2926 Mayfield Rd",
"category_ids": [
9
],
"category_labels": [
[
"Automotive",
"Maintenance and Repair"
]
],
"country": "us",
"factual_id": "5623c750-6da4-42b9-8896-6729648e17b6",
"fax": "(216) 932-0802",
"hours": {
"monday": [
[
"9:00",
"17:00"
]
],
"tuesday": [
[
"9:00",
"17:00"
]
],
"wednesday": [
[
"9:00",
"17:00"
]
],
"thursday": [
[
"9:00",
"17:00"
]
],
"friday": [
[
"9:00",
"17:00"
]
]
},
"hours_display": "Mon-Fri 9:00 AM-5:00 PM",
"latitude": 41.513503,
"locality": "Cleveland",
"longitude": -81.57502,
"name": "Motorcars Auto Body Center",
"neighborhood": [
"Little Italy",
"Coventry"
],
"postcode": "44118",
"region": "OH",
"tel": "(216) 932-0800",
"website": "http://motorcarscollision.com/",
"$distance": 7331.7095
},
{
"address": "8202 Superior Ave",
"category_ids": [
12
],
"category_labels": [
[
"Automotive",
"Maintenance and Repair",
"Tires"
]
],
"country": "us",
"factual_id": "2599bf0a-1ee8-43d8-8253-cc6a927260af",
"fax": "(360) 568-9703",
"hours": {
"monday": [
[
"9:00",
"17:00"
]
],
"tuesday": [
[
"9:00",
"17:00"
]
],
"wednesday": [
[
"9:00",
"17:00"
]
],
"thursday": [
[
"9:00",
"17:00"
]
],
"friday": [
[
"9:00",
"17:00"
]
],
"saturday": [
[
"9:00",
"17:00"
]
],
"sunday": [
[
"10:00",
"16:00"
]
]
},
"hours_display": "Mon-Sat 9:00 AM-5:00 PM; Sun 10:00 AM-4:00 PM",
"latitude": 41.520104,
"locality": "Cleveland",
"longitude": -81.63038,
"name": "Moe's Tire Center 3",
"neighborhood": [
"Hough"
],
"postcode": "44103",
"region": "OH",
"tel": "(216) 231-0059",
"website": "http://www.moestirecenter.com/",
"$distance": 6637.07
},
{
"address": "12916 Larchmere Blvd",
"category_ids": [
12,
10,
13
],
"category_labels": [
[
"Automotive",
"Maintenance and Repair",
"Tires"
],
[
"Automotive",
"Maintenance and Repair",
"Oil and Lube"
],
[
"Automotive",
"Maintenance and Repair",
"Transmissions"
]
],
"country": "us",
"email": "sqa1996@att.net",
"factual_id": "42e2d845-a55e-43eb-b41b-6a4d3444af3b",
"hours": {
"monday": [
[
"8:00",
"17:00"
]
],
"tuesday": [
[
"8:00",
"17:00"
]
],
"wednesday": [
[
"7:45",
"17:00"
]
],
"thursday": [
[
"8:00",
"17:00"
]
],
"friday": [
[
"8:00",
"17:00"
]
]
},
"hours_display": "Mon-Tue 8:00 AM-5:00 PM; Wed 7:45 AM-5:00 PM; Thu-Fri 8:00 AM-5:00 PM",
"latitude": 41.487321,
"locality": "Cleveland",
"longitude": -81.592237,
"name": "Shaker Quality Auto Body",
"neighborhood": [
"Larchmere Antique District",
"Buckeye-Shaker"
],
"postcode": "44120",
"region": "OH",
"tel": "(216) 229-7846",
"website": "http://larchmere.com",
"$distance": 4178.0483
},
{
"address": "4638 Fulton Rd",
"category_ids": [
12
],
"category_labels": [
[
"Automotive",
"Maintenance and Repair",
"Tires"
]
],
"country": "us",
"email": "f1fia@aol.com",
"factual_id": "adc4a9e9-3424-472f-97b9-f7a5ed4cf997",
"fax": "(808) 668-1053",
"hours": {
"monday": [
[
"7:00",
"16:00"
]
],
"tuesday": [
[
"7:00",
"16:00"
]
],
"wednesday": [
[
"7:00",
"16:00"
]
],
"thursday": [
[
"7:00",
"16:00"
]
],
"friday": [
[
"7:00",
"16:00"
]
],
"saturday": [
[
"8:00",
"14:00"
]
]
},
"hours_display": "Mon-Fri 7:00 AM-4:00 PM; Sat 8:00 AM-2:00 PM",
"latitude": 41.43033,
"locality": "Cleveland",
"longitude": -81.723915,
"name": "Tire Man",
"neighborhood": [
"Brooklyn Acres"
],
"postcode": "44144",
"region": "OH",
"tel": "(216) 741-9581",
"website": "http://www.tiremanusa.com",
"$distance": 8721.792
},
{
"address": "14255 Granger Rd",
"category_ids": [
10,
12
],
"category_labels": [
[
"Automotive",
"Maintenance and Repair",
"Oil and Lube"
],
[
"Automotive",
"Maintenance and Repair",
"Tires"
]
],
"country": "us",
"email": "kutchtasauto@att.net",
"factual_id": "051c42c1-9c40-4fd5-85d3-33706713ff11",
"fax": "(216) 587-1014",
"hours": {
"monday": [
[
"8:00",
"18:00"
]
],
"tuesday": [
[
"8:00",
"18:00"
]
],
"wednesday": [
[
"8:00",
"18:00"
]
],
"thursday": [
[
"8:00",
"18:00"
]
],
"friday": [
[
"8:00",
"18:00"
]
]
},
"hours_display": "Mon-Fri 8:00 AM-6:00 PM",
"latitude": 41.417292,
"locality": "Maple Heights",
"longitude": -81.583033,
"name": "Kuchta's Automotive",
"postcode": "44137",
"region": "OH",
"tel": "(216) 587-5626",
"website": "http://acdelcoau.to/rRde",
"$distance": 6054.6606
}
],
"included_rows": 20
}
}